City ID,City,Country,Date,Latitude,Longitude,Max Temp,Humidity,Cloudiness,Wind Speed
0,Nuuk,GL,2021-12-17 05:01:46,64.1835,-51.7216,0.05,86,47,6.42
1,Port Alfred,ZA,2021-12-17 05:11:11,-33.5906,26.891,61.86,49,62,9.24
2,Tigzirt,DZ,2021-12-17 05:11:12,36.8886,4.1198,51.62,58,0,7.23
3,Provideniya,RU,2021-12-17 05:11:12,64.3833,-173.3,9.63,97,99,2.8
4,Chuy,UY,2021-12-17 05:11:12,-33.6971,-53.4616,64.69,79,44,9.71
5,Bengkulu,ID,2021-12-17 05:11:13,-3.8004,102.2655,76.39,92,100,1.88
6,Suruc,TR,2021-12-17 05:11:13,36.9761,38.425,44.8,81,2,2.48
7,Millau,FR,2021-12-17 05:11:14,44.0833,2.9167,37.0,79,0,4.59
8,Fairbanks,US,2021-12-17 05:10:02,64.8378,-147.7164,5.59,81,90,0.0
9,Saint-Pierre,RE,2021-12-17 05:11:14,-21.3393,55.4781,79.29,74,0,12.66
10,Cape Town,ZA,2021-12-17 05:08:59,-33.9258,18.4232,64.11,68,0,4.0
11,Bluff,NZ,2021-12-17 05:07:59,-46.6,168.3333,55.8,76,62,26.53
12,Alta Floresta,BR,2021-12-17 04:59:56,-9.8756,-56.0861,72.46,98,99,1.61
13,Atuona,PF,2021-12-17 05:06:47,-9.8,-139.0333,78.15,71,23,12.28
14,Qaanaaq,GL,2021-12-17 05:08:01,77.484,-69.3632,-2.9,97,100,2.46
15,Constitucion,CL,2021-12-17 05:01:59,-35.3333,-72.4167,55.22,80,73,3.09
16,Pho Chai,TH,2021-12-17 05:11:16,16.3283,103.7703,88.09,46,40,16.64
17,Souillac,MU,2021-12-17 05:11:16,-20.5167,57.5167,83.35,64,13,9.51
18,Nome,US,2021-12-17 05:11:17,64.5011,-165.4064,26.67,93,90,6.91
19,Ribeira Grande,PT,2021-12-17 05:08:00,38.5167,-28.7,61.68,68,79,29.57
20,Ponta Do Sol,PT,2021-12-17 05:11:17,32.6667,-17.1,63.72,77,16,8.08
21,Rikitea,PF,2021-12-17 05:11:18,-23.1203,-134.9692,75.51,74,85,19.3
22,Saint-Augustin,CA,2021-12-17 05:11:18,51.226,-58.6502,27.64,85,100,13.53
23,Cabo San Lucas,MX,2021-12-17 05:08:29,22.8909,-109.9124,73.51,79,100,1.01
24,Butaritari,KI,2021-12-17 05:06:50,3.0707,172.7902,82.22,76,73,10.63
25,Busselton,AU,2021-12-17 05:09:42,-33.65,115.3333,73.04,43,74,17.72
26,Mirante Do Paranapanema,BR,2021-12-17 05:11:19,-22.2919,-51.9064,71.11,94,29,5.1
27,Hithadhoo,MV,2021-12-17 05:11:20,-0.6,73.0833,81.99,73,73,4.27
28,Hermanus,ZA,2021-12-17 05:11:20,-34.4187,19.2345,59.81,67,0,25.72
29,Mataura,NZ,2021-12-17 05:11:21,-46.1927,168.8643,55.47,97,48,11.12
30,Bodden Town,KY,2021-12-17 05:07:01,19.2833,-81.25,76.93,94,40,5.75
31,Acari,PE,2021-12-17 05:11:21,-15.4311,-74.6158,69.42,82,88,3.8
32,Talnakh,RU,2021-12-17 05:11:22,69.4865,88.3972,-35.81,100,85,0.27
33,Dikson,RU,2021-12-17 05:11:22,73.5069,80.5464,-21.39,99,68,9.15
34,Vaini,TO,2021-12-17 05:11:23,-21.2,-175.2,84.36,79,20,9.22
35,Nikolskoye,RU,2021-12-17 05:06:55,59.7035,30.7861,33.69,95,41,6.71
36,Leningradskiy,RU,2021-12-17 05:11:23,69.3833,178.4167,-12.35,96,100,3.69
37,Sur,OM,2021-12-17 05:11:24,22.5667,59.5289,72.72,52,2,4.18
38,Opunake,NZ,2021-12-17 05:11:24,-39.4556,173.8583,64.35,70,39,20.67
39,Briancon,FR,2021-12-17 05:11:25,44.9,6.65,36.37,77,2,2.35
40,Lebu,CL,2021-12-17 05:11:25,-37.6167,-73.65,52.63,93,7,7.2
41,Tuatapere,NZ,2021-12-17 05:11:26,-46.1333,167.6833,55.81,84,68,15.01
42,Estepona,ES,2021-12-17 05:11:26,36.4276,-5.1459,58.82,84,70,10.22
43,Airai,TL,2021-12-17 05:11:27,-8.9266,125.4092,79.2,50,13,1.9
44,Klaksvik,FO,2021-12-17 05:11:27,62.2266,-6.589,47.32,88,100,18.88
45,Punta Arenas,CL,2021-12-17 05:06:33,-53.15,-70.9167,51.91,76,0,11.5
46,Ushuaia,AR,2021-12-17 05:06:46,-54.8,-68.3,44.26,100,75,2.3
47,Fort Nelson,CA,2021-12-17 05:01:35,58.8053,-122.7002,-32.31,100,26,1.81
48,Chimbote,PE,2021-12-17 05:11:29,-9.0853,-78.5783,66.85,86,76,5.61
49,Mehamn,NO,2021-12-17 05:11:29,71.0357,27.8492,33.75,80,75,9.22
50,Kahului,US,2021-12-17 05:11:30,20.8947,-156.47,74.84,88,40,10.36
51,Kutum,SD,2021-12-17 05:11:30,14.2,24.6667,54.64,36,38,6.29
52,Isangel,VU,2021-12-17 05:09:15,-19.55,169.2667,82.51,61,40,11.5
53,Cuiluan,CN,2021-12-17 05:11:31,47.72,128.648,-5.31,73,61,11.65
54,Tuktoyaktuk,CA,2021-12-17 05:11:31,69.4541,-133.0374,-19.59,91,78,13.87
55,Hilo,US,2021-12-17 05:09:12,19.7297,-155.09,73.27,46,1,4.61
56,Swift Current,CA,2021-12-17 05:11:32,50.2834,-107.8014,0.41,78,90,16.11
57,Pevek,RU,2021-12-17 05:11:32,69.7008,170.3133,-8.12,83,100,2.13
58,Nanortalik,GL,2021-12-17 05:11:33,60.1432,-45.2371,24.85,76,79,21.65
59,Tocopilla,CL,2021-12-17 05:11:33,-22.092,-70.1979,66.96,77,63,5.97
60,Hobart,AU,2021-12-17 05:08:03,-42.8794,147.3294,77.27,53,75,1.01
61,Mar Del Plata,AR,2021-12-17 05:11:34,-38.0023,-57.5575,64.87,88,8,13.0
62,Tiksi,RU,2021-12-17 05:11:34,71.6872,128.8694,-25.92,100,100,3.96
63,Laramie,US,2021-12-17 05:08:42,41.3114,-105.5911,28.53,59,90,3.0
64,Ozernovskiy,RU,2021-12-17 05:11:35,51.5,156.5167,22.82,60,100,11.97
65,Trat,TH,2021-12-17 05:11:35,12.5,102.5,93.9,51,29,15.05
66,San Quintin,MX,2021-12-17 05:08:35,30.4833,-115.95,55.76,79,0,16.69
67,Clyde River,CA,2021-12-17 05:11:36,70.4692,-68.5914,-26.54,90,60,3.09
68,Comodoro Rivadavia,AR,2021-12-17 05:11:36,-45.8667,-67.5,55.26,71,0,1.14
69,Arraial Do Cabo,BR,2021-12-17 05:11:37,-22.9661,-42.0278,76.15,91,69,1.59
70,Peniche,PT,2021-12-17 05:11:37,39.3558,-9.3811,52.93,70,6,15.68
71,Oranjemund,NA,2021-12-17 05:11:38,-28.55,16.4333,66.24,54,50,5.88
72,Severo-Kurilsk,RU,2021-12-17 05:11:38,50.6789,156.125,23.0,76,97,6.85
73,San Rafael,AR,2021-12-17 05:11:39,-34.6177,-68.3301,71.74,69,44,5.21
74,Jamestown,US,2021-12-17 05:11:39,42.097,-79.2353,48.09,64,1,7.0
75,Bredasdorp,ZA,2021-12-17 05:11:39,-34.5322,20.0403,59.29,63,31,19.46
76,Iqaluit,CA,2021-12-17 05:11:40,63.7506,-68.5145,7.7,65,100,17.0
77,Itacare,BR,2021-12-17 05:11:40,-14.2775,-38.9967,74.14,89,67,4.18
78,Oum Hadjer,TD,2021-12-17 05:11:41,13.2954,19.6966,66.92,31,32,8.37
79,Tahoua,NE,2021-12-17 05:11:41,14.8888,5.2692,63.64,19,80,13.56
80,Deputatskiy,RU,2021-12-17 05:11:41,69.3,139.9,-24.79,93,94,1.66
81,Port Lincoln,AU,2021-12-17 05:11:42,-34.7333,135.8667,88.66,32,100,11.48
82,Guerrero Negro,MX,2021-12-17 05:09:53,27.9769,-114.0611,60.13,65,100,14.29
83,Romny,UA,2021-12-17 05:11:43,50.751,33.4747,34.79,95,100,8.1
84,Castro,BR,2021-12-17 05:06:44,-24.7911,-50.0119,66.11,99,15,5.7
85,Lima,PE,2021-12-17 05:06:59,-12.0432,-77.0282,66.9,83,90,8.05
86,Novikovo,RU,2021-12-17 05:03:19,51.1537,37.8879,32.85,98,100,3.69
87,Norman Wells,CA,2021-12-17 05:11:44,65.282,-126.8329,-24.75,92,27,7.94
88,Tomatlan,MX,2021-12-17 05:11:44,19.9333,-105.25,68.85,93,13,3.44
89,Ambikapur,IN,2021-12-17 05:11:44,23.1167,83.2,70.97,38,67,3.13
90,Kapaa,US,2021-12-17 05:11:45,22.0752,-159.319,75.52,83,40,11.5
91,Touros,BR,2021-12-17 05:11:45,-5.1989,-35.4608,77.9,79,80,10.65
92,Venice,US,2021-12-17 05:11:46,27.0998,-82.4543,71.98,92,90,5.75
93,Lufilufi,WS,2021-12-17 04:59:19,-13.8745,-171.5986,85.78,76,35,17.45
94,Saldanha,ZA,2021-12-17 05:11:46,-33.0117,17.9442,63.77,57,0,15.59
95,Torbay,CA,2021-12-17 05:11:47,47.6666,-52.7314,17.28,64,46,1.52
96,Mackay,AU,2021-12-17 05:11:47,-21.15,149.2,87.67,56,0,12.97
97,Lorengau,PG,2021-12-17 05:11:48,-2.0226,147.2712,83.98,74,100,1.3
98,Thompson,CA,2021-12-17 05:11:48,55.7435,-97.8558,-8.55,88,50,9.71
99,Chumikan,RU,2021-12-17 05:11:49,54.7183,135.315,-12.8,86,100,20.31
100,Portland,US,2021-12-17 05:09:36,45.5234,-122.6762,44.91,94,75,3.0
101,Epernay,FR,2021-12-17 05:11:49,49.05,3.95,46.51,94,6,6.29
102,Sernovodsk,RU,2021-12-17 05:11:50,43.3117,45.1594,39.76,94,100,3.4
103,Manaus,BR,2021-12-17 05:11:50,-3.1019,-60.025,79.29,100,40,3.44
104,Hofn,IS,2021-12-17 05:02:37,64.2539,-15.2082,41.77,86,32,17.34
105,Orotukan,RU,2021-12-17 05:11:51,62.2667,151.7,-32.48,100,85,1.68
106,Avera,US,2021-12-17 05:11:51,33.194,-82.5271,60.71,92,91,2.95
107,Nola,IT,2021-12-17 05:11:52,40.922,14.5329,53.37,76,59,3.74
108,Maceio,BR,2021-12-17 05:08:03,-9.6658,-35.7353,76.44,88,75,5.75
109,Ritchie,ZA,2021-12-17 05:11:52,-29.038,24.6028,56.41,53,4,16.58
110,Avarua,CK,2021-12-17 05:11:53,-21.2078,-159.775,80.65,78,40,9.22
111,Casper,US,2021-12-17 05:07:17,42.8666,-106.3131,30.51,66,20,8.99
112,Saint George,US,2021-12-17 05:01:02,37.1041,-113.5841,37.99,73,1,3.0
113,Tiznit,MA,2021-12-17 05:11:54,29.5833,-9.5,51.35,39,26,7.67
114,Caala,AO,2021-12-17 05:11:55,-12.8525,15.5606,60.33,98,100,1.43
115,Bodrum,TR,2021-12-17 05:11:55,37.0383,27.4292,49.48,71,89,13.58
116,Jalu,LY,2021-12-17 05:11:55,29.0331,21.5482,49.75,71,24,4.5
117,Victoria,HK,2021-12-17 05:09:43,22.2855,114.1577,76.24,64,100,1.99
118,Saskylakh,RU,2021-12-17 05:11:56,71.9167,114.0833,-32.08,99,85,2.21
119,San Patricio,US,2021-12-17 05:11:56,28.017,-97.5169,73.83,87,70,12.55
120,Guiratinga,BR,2021-12-17 05:11:57,-16.3494,-53.7583,70.65,98,100,4.43
121,Saurimo,AO,2021-12-17 05:11:57,-9.6608,20.3916,63.82,97,100,4.09
122,Dudinka,RU,2021-12-17 05:11:58,69.4058,86.1778,-41.73,100,59,3.36
123,Puerto Ayora,EC,2021-12-17 05:11:58,-0.7393,-90.3518,69.55,95,78,3.0
124,Carnarvon,AU,2021-12-17 05:11:59,-24.8667,113.6333,77.07,53,24,17.27
125,Yellowknife,CA,2021-12-17 05:11:59,62.456,-114.3525,-20.58,85,91,4.0
126,Namibe,AO,2021-12-17 05:12:00,-15.1961,12.1522,65.26,80,28,3.76
127,River Falls,US,2021-12-17 05:12:00,44.8614,-92.6238,20.32,76,5,13.09
128,Lompoc,US,2021-12-17 05:12:01,34.6391,-120.4579,53.38,89,1,0.0
129,Camopi,GF,2021-12-17 05:12:01,3.1655,-52.3158,72.01,99,99,1.83
130,Qinggang,CN,2021-12-17 05:12:02,46.6833,126.0833,-2.45,76,14,11.14
131,Mount Gambier,AU,2021-12-17 05:12:02,-37.8333,140.7667,86.56,20,81,5.19
132,Dunedin,NZ,2021-12-17 05:12:02,-45.8742,170.5036,60.8,66,45,1.99
133,Mount Isa,AU,2021-12-17 05:02:49,-20.7333,139.5,101.97,21,40,5.75
134,Ixtapa,MX,2021-12-17 05:10:54,20.7,-105.2,72.23,89,20,2.66
135,Nikolsk,RU,2021-12-17 05:12:03,53.7189,46.0712,30.4,97,100,9.8
136,Mufumbwe,ZM,2021-12-17 05:12:04,-13.6833,24.8,65.57,93,100,2.91
137,Geraldton,AU,2021-12-17 05:02:27,-28.7667,114.6,76.12,43,40,16.11
138,Saint-Philippe,RE,2021-12-17 05:12:04,-21.3585,55.7679,79.21,77,59,9.1
139,Bushehr,IR,2021-12-17 05:12:05,28.9684,50.8385,70.5,59,69,9.6
140,Albany,US,2021-12-17 05:07:14,42.6001,-73.9662,61.66,61,99,9.33
141,Nantucket,US,2021-12-17 05:09:45,41.2835,-70.0995,57.31,88,1,17.27
142,Barrow,US,2021-12-17 05:12:06,71.2906,-156.7887,-9.38,77,90,23.02
143,Jacqueville,CI,2021-12-17 05:11:19,5.2052,-4.4146,78.71,80,54,5.23
144,Dharangaon,IN,2021-12-17 05:12:06,21.0167,75.2667,77.14,40,25,5.99
145,Mayo,US,2021-12-17 05:12:07,38.8876,-76.5119,64.38,65,20,4.0
146,Alekseyevsk,RU,2021-12-17 05:12:07,57.8406,108.3492,8.51,94,100,11.43
147,Lata,PT,2021-12-17 05:12:08,40.1629,-8.3327,48.04,75,31,5.48
148,New Norfolk,AU,2021-12-17 05:12:08,-42.7826,147.0587,76.91,33,60,3.0
149,Zhovtneve,UA,2021-12-17 05:12:09,50.6637,24.2492,35.71,80,99,16.55
150,Ekhabi,RU,2021-12-17 05:12:09,53.5102,142.9671,-5.33,91,100,18.23
151,Beringovskiy,RU,2021-12-17 05:12:10,63.05,179.3167,-11.31,99,95,6.78
152,Olavarria,AR,2021-12-17 05:12:10,-36.8927,-60.3225,58.21,89,2,7.56
153,Esperance,AU,2021-12-17 05:11:08,-33.8667,121.9,68.13,64,41,19.82
154,Berlevag,NO,2021-12-17 05:12:11,70.8578,29.0864,33.8,93,99,3.38
155,Hovd,MN,2021-12-17 05:12:11,48.0056,91.6419,10.67,59,26,0.51
156,Gushikawa,JP,2021-12-17 05:12:11,26.3544,127.8686,67.59,64,90,20.71
157,Luderitz,NA,2021-12-17 05:12:12,-26.6481,15.1594,64.04,64,68,7.74
158,Itoman,JP,2021-12-17 05:12:12,26.1247,127.6694,68.38,68,75,24.16
159,Dilla,ET,2021-12-17 05:12:13,6.41,38.31,67.15,61,83,1.7
160,Hualmay,PE,2021-12-17 05:12:13,-11.0964,-77.6139,66.99,87,43,6.96
161,Chokurdakh,RU,2021-12-17 05:12:14,70.6333,147.9167,-27.85,99,65,8.46
162,Vallenar,CL,2021-12-17 05:12:14,-28.5708,-70.7581,66.61,51,0,2.13
163,Hervey Bay,AU,2021-12-17 05:12:14,-25.2986,152.8535,86.11,57,11,13.51
164,Quelimane,MZ,2021-12-17 05:12:15,-17.8786,36.8883,85.44,51,71,6.62
165,Maniitsoq,GL,2021-12-17 05:12:15,65.4167,-52.9,13.26,69,16,8.16
166,Muroto,JP,2021-12-17 05:12:17,33.2833,134.15,57.29,60,9,32.3
167,Iranshahr,IR,2021-12-17 05:07:17,27.2025,60.6848,63.64,12,24,2.08
168,East London,ZA,2021-12-17 05:12:17,-33.0153,27.9116,61.79,52,99,6.73
169,Nhulunbuy,AU,2021-12-17 05:12:18,-12.2333,136.7667,93.81,49,40,9.22
170,Asau,RO,2021-12-17 05:12:18,46.4333,26.4,39.4,96,99,2.08
171,Port Elizabeth,ZA,2021-12-17 05:12:18,-33.918,25.5701,59.29,63,0,2.3
172,Sao Miguel Do Araguaia,BR,2021-12-17 05:12:19,-13.275,-50.1628,69.69,96,100,3.11
173,Cayenne,GF,2021-12-17 05:12:19,4.9333,-52.3333,80.1,85,40,1.99
174,Olafsvik,IS,2021-12-17 05:12:20,64.8945,-23.7142,42.13,80,100,23.33
175,Necochea,AR,2021-12-17 05:12:20,-38.5473,-58.7368,69.04,61,7,13.42
176,Fortuna,US,2021-12-17 05:12:21,40.5982,-124.1573,43.2,59,16,5.12
177,Khatanga,RU,2021-12-17 05:09:21,71.9667,102.5,-14.06,99,100,3.58
178,Valley City,US,2021-12-17 05:12:21,46.9233,-98.0032,4.19,78,12,8.05
179,Ridgecrest,US,2021-12-17 05:12:22,35.6225,-117.6709,46.15,66,40,4.0
180,Prince Rupert,CA,2021-12-17 05:02:40,54.3161,-130.3201,26.96,71,86,5.46
181,Sorland,NO,2021-12-17 05:12:22,67.667,12.6934,43.41,72,98,16.78
182,Trelew,AR,2021-12-17 05:08:03,-43.249,-65.3051,66.56,60,17,9.28
183,Bambous Virieux,MU,2021-12-17 05:12:23,-20.3428,57.7575,83.21,70,33,9.44
184,Ambulu,ID,2021-12-17 05:03:18,-8.345,113.6058,86.92,69,97,5.73
185,Aksay,RU,2021-12-17 05:12:24,47.26,39.87,32.22,94,99,3.62
186,Huilong,CN,2021-12-17 05:12:24,31.8111,121.655,47.98,41,4,24.36
187,Helena,US,2021-12-17 05:07:35,46.5927,-112.0361,26.31,71,75,1.99
188,Katsuura,JP,2021-12-17 05:12:25,35.1333,140.3,53.71,72,68,11.81
189,Harrismith,ZA,2021-12-17 05:12:25,-28.2728,29.1295,48.54,92,100,13.56
190,Oranjestad,AW,2021-12-17 05:12:26,12.524,-70.027,79.92,79,100,5.01
191,Faanui,PF,2021-12-17 05:12:26,-16.4833,-151.75,81.03,74,26,8.55
192,Belaya Gora,RU,2021-12-17 05:12:26,68.5333,146.4167,-23.19,98,100,2.71
193,Mutoko,ZW,2021-12-17 05:12:27,-17.397,32.2268,70.47,62,93,3.29
194,Evensk,RU,2021-12-17 05:12:27,61.95,159.2333,-12.3,78,29,9.31
195,Port Hedland,AU,2021-12-17 05:12:28,-20.3167,118.5667,100.45,27,7,20.71
196,Pontianak,ID,2021-12-17 05:12:28,-0.0333,109.3333,87.78,70,75,5.75
197,Goya,AR,2021-12-17 05:10:54,-29.14,-59.2626,67.75,47,31,5.23
198,Mareeba,AU,2021-12-17 05:12:29,-17.0,145.4333,92.32,53,89,8.97
199,Baruun-Urt,MN,2021-12-17 05:12:29,46.6806,113.2792,3.27,73,6,20.74
200,Yamnytsya,UA,2021-12-17 05:12:30,48.9897,24.7075,37.9,87,90,11.18
201,Kudahuvadhoo,MV,2021-12-17 05:12:30,2.6708,72.8944,82.02,75,73,7.49
202,Grand Gaube,MU,2021-12-17 05:12:30,-20.0064,57.6608,83.37,67,8,4.0
203,Winnemucca,US,2021-12-17 05:08:43,40.973,-117.7357,30.25,80,90,5.75
204,Tilichiki,RU,2021-12-17 05:12:31,60.4667,166.1,-13.2,94,82,9.26
205,Proastion,GR,2021-12-17 05:12:31,39.4886,21.9025,31.78,74,6,2.35
206,Korla,CN,2021-12-17 05:12:32,41.7597,86.1469,27.73,49,1,6.8
207,Mangrol,IN,2021-12-17 05:02:45,21.1167,70.1167,70.92,31,0,14.52
208,Naze,JP,2021-12-17 05:12:33,28.3667,129.4833,61.59,65,94,24.58
209,Waingapu,ID,2021-12-17 05:12:33,-9.6567,120.2641,89.31,60,41,8.52
210,Horsham,GB,2021-12-17 05:12:34,51.064,-0.3272,49.71,74,75,4.61
211,Labuhan,ID,2021-12-17 05:12:34,-6.8844,112.2051,86.59,68,100,5.93
212,Paraguacu Paulista,BR,2021-12-17 05:12:34,-22.4128,-50.5758,69.73,96,72,7.52
213,Dumraon,IN,2021-12-17 05:12:35,25.55,84.15,74.73,31,1,7.65
214,Hami,CN,2021-12-17 05:12:35,42.8,93.45,24.04,47,24,2.15
215,Saint-Leu,RE,2021-12-17 05:12:36,-21.15,55.2833,78.67,72,94,4.56
216,Sept-Iles,CA,2021-12-17 05:12:36,50.2001,-66.3821,34.05,88,100,8.01
217,La Ronge,CA,2021-12-17 05:12:36,55.1001,-105.2842,-17.55,99,75,4.85
218,Vestmannaeyjar,IS,2021-12-17 05:03:12,63.4427,-20.2734,45.72,83,100,13.67
219,Lanzhou,CN,2021-12-17 05:12:37,36.0564,103.7922,28.8,42,99,4.09
220,Bethel,US,2021-12-17 05:12:38,41.3712,-73.414,58.71,66,100,3.0
221,Yulara,AU,2021-12-17 05:12:38,-25.2406,130.9889,109.24,10,2,12.66
222,Hurghada,EG,2021-12-17 05:12:39,27.2574,33.8129,60.57,54,100,16.13
223,Mwinilunga,ZM,2021-12-17 05:12:39,-11.7358,24.4293,62.71,98,100,1.1
224,Serowe,BW,2021-12-17 05:12:40,-22.3833,26.7167,67.44,79,96,12.88
225,Zhezkazgan,KZ,2021-12-17 05:12:40,47.8043,67.7144,24.78,93,90,6.71
226,Matay,EG,2021-12-17 05:12:41,28.419,30.7792,52.32,82,67,6.73
227,Nadadores,MX,2021-12-17 05:12:41,27.05,-101.6,69.24,70,97,1.1
228,Tasiilaq,GL,2021-12-17 05:08:03,65.6145,-37.6368,29.97,99,99,6.46
229,Nova Prata,BR,2021-12-17 05:12:42,-28.7839,-51.61,63.28,100,30,2.24
230,Insch,GB,2021-12-17 05:12:42,57.3427,-2.6132,46.92,84,20,3.15
231,Ilulissat,GL,2021-12-17 05:12:43,69.2167,-51.1,15.82,73,75,9.22
232,Margate,GB,2021-12-17 05:03:35,51.3813,1.3862,48.31,89,4,9.51
233,Gogrial,SS,2021-12-17 05:12:43,8.5332,28.1004,72.0,29,99,5.84
234,Neiafu,TO,2021-12-17 05:12:44,-18.65,-173.9833,83.08,74,40,8.05
235,Husavik,IS,2021-12-17 05:12:44,66.0449,-17.3389,41.56,72,100,15.3
236,Adrar,MR,2021-12-17 05:12:45,20.5022,-10.0711,69.64,24,100,6.82
237,Cap Malheureux,MU,2021-12-17 05:12:45,-19.9842,57.6142,83.46,67,7,4.0
238,Amapa,BR,2021-12-17 05:12:46,1.0,-52.0,71.98,99,100,1.57
239,Alibag,IN,2021-12-17 05:12:46,18.6411,72.8792,78.87,57,75,9.55
240,Togur,RU,2021-12-17 05:12:46,58.3631,82.8265,13.71,95,100,6.35
241,Abu Dhabi,AE,2021-12-17 05:10:13,24.4667,54.3667,69.91,66,0,6.91
242,Kurilsk,RU,2021-12-17 05:12:47,45.2333,147.8833,34.77,73,100,9.28
243,Urazovka,RU,2021-12-17 05:12:47,55.4013,45.6186,28.94,97,96,8.43
244,Namatanai,PG,2021-12-17 05:02:58,-3.6667,152.4333,84.88,71,99,9.35
245,Solec Kujawski,PL,2021-12-17 05:12:48,53.0837,18.2257,38.88,64,0,5.01
246,Khani,GE,2021-12-17 05:12:49,41.9563,42.9566,38.77,60,100,1.79
247,Tabou,CI,2021-12-17 05:12:49,4.423,-7.3528,77.88,86,19,3.4
248,Vostok,RU,2021-12-17 05:12:49,46.4856,135.8833,-10.34,85,71,7.67
249,Sao Filipe,CV,2021-12-17 05:12:50,14.8961,-24.4956,73.78,74,90,7.54
250,Lakes Entrance,AU,2021-12-17 05:12:50,-37.8811,147.981,88.57,63,10,8.86
251,College,US,2021-12-17 05:12:51,64.8569,-147.8028,5.58,81,90,0.0
252,Kamskiye Polyany,RU,2021-12-17 05:12:51,55.4307,51.4171,27.41,96,99,9.28
253,Yar-Sale,RU,2021-12-17 05:12:51,66.8333,70.8333,-13.18,98,96,9.04
254,Iracoubo,GF,2021-12-17 05:03:30,5.4802,-53.2011,76.59,91,100,5.93
255,Pinawa,CA,2021-12-17 05:12:52,50.1489,-95.8811,5.38,87,100,9.26
256,Buenos Aires,AR,2021-12-17 05:10:30,-34.6132,-58.3772,69.94,76,20,12.66
257,Chernyshevskiy,RU,2021-12-17 05:12:53,63.0128,112.4714,-18.38,98,97,4.92
258,Karratha,AU,2021-12-17 05:12:53,-20.7377,116.8463,97.54,28,0,16.78
259,Grindavik,IS,2021-12-17 05:12:54,63.8424,-22.4338,43.27,81,75,13.8
260,Beloha,MG,2021-12-17 05:12:54,-25.1667,45.05,85.78,50,25,7.61
261,Virginia Beach,US,2021-12-17 05:10:15,36.8529,-75.978,63.01,83,1,1.99
262,Cherskiy,RU,2021-12-17 05:12:55,68.75,161.3,-17.37,98,100,2.1
263,Rudiskes,LT,2021-12-17 05:12:55,54.5167,24.8333,35.87,93,68,9.6
264,Samoded,RU,2021-12-17 05:12:56,63.6083,40.5111,18.55,98,100,3.69
265,Panama City,PA,2021-12-17 05:10:28,8.9936,-79.5197,82.06,88,90,3.44
266,Kiama,AU,2021-12-17 05:12:56,-34.6833,150.8667,81.0,68,26,10.0
267,Xichang,CN,2021-12-17 05:12:57,27.8964,102.2634,55.15,56,73,3.42
268,Sai Buri,TH,2021-12-17 05:12:57,6.7013,101.6168,80.96,87,100,11.59
269,Biak,ID,2021-12-17 05:12:57,-0.9131,122.8766,83.34,72,100,3.62
270,Waiuku,NZ,2021-12-17 05:12:58,-37.25,174.75,70.86,65,43,12.39
271,Kanniyakumari,IN,2021-12-17 05:12:59,8.0833,77.5667,81.72,61,53,17.29
272,Zaterechnyy,RU,2021-12-17 05:12:59,44.7931,45.2097,42.62,85,100,6.8
273,Ankara,TR,2021-12-17 05:12:54,39.9199,32.8543,34.72,94,100,1.01
274,Mahon,ES,2021-12-17 05:13:00,39.8885,4.2658,52.36,82,90,2.3
275,Marrakesh,MA,2021-12-17 05:13:00,31.6315,-8.0083,50.07,62,0,2.3
276,Ahipara,NZ,2021-12-17 05:13:01,-35.1667,173.1667,67.14,68,35,13.71
277,Tezu,IN,2021-12-17 05:13:01,27.9167,96.1667,74.57,25,97,3.49
278,Cidreira,BR,2021-12-17 05:11:15,-30.1811,-50.2056,66.9,91,46,8.21
279,Talaya,RU,2021-12-17 05:13:02,61.3833,152.75,-30.75,100,100,1.79
280,The Pas,CA,2021-12-17 05:13:02,53.8251,-101.2541,-9.71,96,9,5.99
281,Manicore,BR,2021-12-17 05:13:03,-5.8092,-61.3003,74.5,97,89,1.03
282,Tiarei,PF,2021-12-17 05:13:03,-17.5333,-149.3333,80.62,78,80,15.79
283,Tommot,RU,2021-12-17 05:13:03,58.9564,126.2925,-1.37,93,100,7.99
284,Ramsar,IR,2021-12-17 05:13:04,36.9226,50.6426,60.04,58,100,7.23
285,Waitati,NZ,2021-12-17 05:13:04,-45.75,170.5667,60.8,66,47,4.72
286,Yarada,IN,2021-12-17 05:13:05,17.65,83.2667,79.12,34,14,4.61
287,Broken Hill,AU,2021-12-17 05:13:05,-31.95,141.4333,96.66,15,22,10.2
288,Georgetown,MY,2021-12-17 05:13:06,5.4112,100.3354,78.73,94,40,1.01
289,Biloela,AU,2021-12-17 05:13:06,-24.4167,150.5,90.09,30,29,12.55
290,Kaniama,CD,2021-12-17 05:13:07,-7.5667,24.1833,66.4,98,100,1.43
291,Guadix,ES,2021-12-17 05:13:07,37.2993,-3.1392,43.47,60,37,6.55
292,Talcahuano,CL,2021-12-17 05:13:07,-36.7167,-73.1167,56.88,77,75,3.44
293,Saint Anthony,US,2021-12-17 05:13:08,45.0205,-93.218,19.26,71,1,3.0
294,Wanlaweyn,SO,2021-12-17 05:13:08,2.6185,44.8938,80.01,72,97,15.82
295,Sechura,PE,2021-12-17 05:13:09,-5.5569,-80.8222,69.44,78,100,13.6
296,Madimba,TZ,2021-12-17 05:13:09,-10.4,40.3333,82.9,64,87,6.33
297,Sioux Lookout,CA,2021-12-17 05:13:09,50.1001,-91.917,3.58,89,100,11.72
298,Vardo,NO,2021-12-17 05:13:10,70.3705,31.1107,30.4,72,100,10.13
299,Marsh Harbour,BS,2021-12-17 05:13:10,26.5412,-77.0636,75.36,74,5,10.2
300,Almora,IN,2021-12-17 05:13:11,29.6167,79.6667,52.05,34,32,3.06
301,Atar,MR,2021-12-17 05:13:11,20.5169,-13.0499,66.38,20,6,2.04
302,Altar,MX,2021-12-17 05:13:11,30.7,-111.8167,53.26,28,36,2.53
303,Diego De Almagro,CL,2021-12-17 05:13:12,-26.3667,-70.05,61.79,47,1,2.01
304,Yate,GB,2021-12-17 05:13:12,51.5407,-2.4184,48.22,91,0,3.87
305,Samarai,PG,2021-12-17 05:13:13,-10.6167,150.6667,83.93,73,60,6.67
306,Le Havre,FR,2021-12-17 05:13:13,49.4938,0.1077,44.35,87,0,8.05
307,Dicabisagan,PH,2021-12-17 05:13:14,17.0818,122.4157,79.03,89,99,6.49
308,Caloundra,AU,2021-12-17 05:13:14,-26.8,153.1333,86.36,65,32,5.99
309,Pelym,RU,2021-12-17 05:13:15,61.0108,61.9978,13.3,96,100,4.34
310,Darhan,MN,2021-12-17 05:13:15,49.4867,105.9228,1.9,73,100,1.9
311,Bahar,IR,2021-12-17 05:13:16,34.9072,48.4414,40.73,49,100,3.38
312,Alice Springs,AU,2021-12-17 05:10:15,-23.7,133.8833,103.55,11,0,4.61
313,Kungurtug,RU,2021-12-17 05:13:16,50.5994,97.5228,5.52,85,100,0.56
314,Dawlatabad,AF,2021-12-17 05:13:17,36.4141,64.9053,42.58,42,0,2.21
315,Odweyne,SO,2021-12-17 05:13:17,9.4092,45.064,67.51,65,52,4.81
316,Menongue,AO,2021-12-17 05:13:18,-14.6585,17.691,62.94,96,100,7.74
317,Kokopo,PG,2021-12-17 05:13:18,-4.352,152.2633,82.62,78,100,3.49
318,Acapulco,MX,2021-12-17 05:10:55,16.8634,-99.8901,76.98,77,0,3.76
319,Turayf,SA,2021-12-17 05:13:19,31.6725,38.6637,47.01,72,0,5.75
320,Shubarshi,KZ,2021-12-17 05:13:19,48.5872,57.1869,30.69,84,100,6.33
321,Turkistan,KZ,2021-12-17 05:13:20,43.0,68.0,38.23,59,51,4.7
322,Port Macquarie,AU,2021-12-17 05:13:20,-31.4333,152.9167,75.16,68,66,7.63
323,Mawlaik,MM,2021-12-17 05:13:20,23.6333,94.4167,77.16,48,59,2.95
324,Kijang,KR,2021-12-17 05:13:21,35.2442,129.2139,38.07,38,10,19.84
325,Itarema,BR,2021-12-17 05:13:21,-2.9248,-39.9167,80.22,76,100,14.7
326,Karoi,ZW,2021-12-17 05:13:22,-16.8099,29.6925,69.8,71,91,2.17
327,Northam,GB,2021-12-17 05:13:22,51.0333,-4.2167,51.03,86,0,6.55
328,Codrington,AU,2021-12-17 05:13:22,-38.2667,141.9667,82.62,27,67,11.65
329,Phan Thiet,VN,2021-12-17 05:13:23,10.9333,108.1,82.94,70,100,6.49
330,Kaitangata,NZ,2021-12-17 05:13:23,-46.2817,169.8464,56.93,62,61,18.79
331,Launceston,AU,2021-12-17 05:13:24,-41.45,147.1667,73.62,43,72,5.99
332,Melbu,NO,2021-12-17 05:13:24,68.5044,14.8297,42.22,87,75,14.97
333,La Paz,BO,2021-12-17 05:13:25,-16.5,-68.15,42.78,100,75,8.05
334,Longyearbyen,SJ,2021-12-17 05:13:25,78.2186,15.6401,19.24,86,20,4.61
335,Usinsk,RU,2021-12-17 05:13:25,65.9939,57.5281,12.54,94,100,7.31
336,Szczytno,PL,2021-12-17 05:13:26,53.5626,20.9875,39.13,75,75,10.36
337,Halmstad,SE,2021-12-17 05:13:26,56.6745,12.8568,41.34,100,90,8.05
338,Bathsheba,BB,2021-12-17 05:13:27,13.2167,-59.5167,79.41,69,40,25.32
339,Ayan,RU,2021-12-17 05:13:02,56.45,138.1667,-6.02,61,100,14.85
340,Coihaique,CL,2021-12-17 05:13:27,-45.5752,-72.0662,60.75,72,0,4.61
341,Kavaratti,IN,2021-12-17 05:13:28,10.5669,72.642,82.8,70,14,11.16
342,Port Hardy,CA,2021-12-17 05:13:28,50.6996,-127.4199,37.76,75,63,2.68
343,Rio Grande,BR,2021-12-17 05:13:29,-32.035,-52.0986,67.95,89,35,16.26
344,Tambo,PE,2021-12-17 05:13:29,-14.8,-73.9167,39.63,59,100,2.35
345,Kasongo-Lunda,CD,2021-12-17 05:13:30,-6.4667,16.8167,68.49,99,100,1.01
346,Zabaykalsk,RU,2021-12-17 05:13:30,49.6333,117.3167,1.87,64,97,13.42
347,Great Yarmouth,GB,2021-12-17 05:13:31,52.6083,1.7305,46.94,91,7,5.88
348,Trinidad,BO,2021-12-17 05:13:31,-14.8333,-64.9,71.87,97,100,3.31
349,Talakan,RU,2021-12-17 05:13:31,50.3167,130.3667,-11.58,86,87,4.38
350,Lavrentiya,RU,2021-12-17 05:13:32,65.5833,-171.0,5.65,90,100,4.59
351,Mokhsogollokh,RU,2021-12-17 05:13:32,61.4681,128.9203,-15.5,97,100,1.88
352,West Wendover,US,2021-12-17 05:13:33,40.7391,-114.0733,24.01,80,1,0.0
353,Konstantinovka,RU,2021-12-17 05:13:33,49.6167,127.9833,-1.52,80,71,5.41
354,Faya,SA,2021-12-17 05:13:34,18.3851,42.4509,57.72,45,17,4.18
355,Narsaq,GL,2021-12-17 05:13:34,60.9167,-46.05,17.82,77,52,5.21
356,Omsukchan,RU,2021-12-17 05:13:35,62.5333,155.8,-32.22,97,91,3.53
357,Millinocket,US,2021-12-17 05:13:35,45.6573,-68.7098,43.56,93,90,0.0
358,Meulaboh,ID,2021-12-17 05:13:35,4.1363,96.1285,77.61,90,100,2.84
359,Casa Nova,BR,2021-12-17 05:13:36,-9.4167,-41.1333,78.78,60,99,18.61
360,Anna Paulowna,NL,2021-12-17 05:13:37,52.862,4.834,47.01,95,90,4.0
361,Yerbogachen,RU,2021-12-17 05:13:37,61.2767,108.0108,-10.93,97,100,5.08
362,Belmonte,BR,2021-12-17 05:13:37,-15.8631,-38.8828,73.9,88,42,7.09
363,Camapua,BR,2021-12-17 05:13:38,-19.5314,-54.0439,72.59,95,100,0.83
364,Sistranda,NO,2021-12-17 05:13:38,63.7256,8.834,45.9,86,96,26.35
365,Antigonish,CA,2021-12-17 05:13:39,45.6169,-61.9986,43.83,97,100,1.01
366,Potchefstroom,ZA,2021-12-17 05:09:47,-26.7167,27.1,63.16,74,5,15.84
367,Xuanzhou,CN,2021-12-17 05:13:39,30.9525,118.7553,50.45,30,0,14.38
368,Ous,RU,2021-12-17 05:13:40,60.9058,61.5186,12.72,96,100,4.25
369,Maputo,MZ,2021-12-17 05:13:40,-25.9653,32.5892,66.22,87,100,14.0
370,Burnie,AU,2021-12-17 05:13:41,-41.0667,145.9167,65.95,59,70,6.53
371,Krasnoselkup,RU,2021-12-17 05:13:41,65.7,82.4667,-33.7,100,97,5.21
372,Bereslavka,RU,2021-12-17 05:13:41,48.6254,44.0449,32.77,97,57,5.26
373,Coquimbo,CL,2021-12-17 05:13:42,-29.9533,-71.3436,58.73,82,0,3.44
374,Tautira,PF,2021-12-17 05:13:42,-17.7333,-149.15,80.62,78,68,15.68
375,Kodiak,US,2021-12-17 05:13:43,57.79,-152.4072,35.11,80,90,10.36
376,Mabaruma,GY,2021-12-17 05:13:43,8.2,-59.7833,72.57,99,95,2.28
377,Nizwa,OM,2021-12-17 05:13:43,22.9333,57.5333,67.69,43,5,1.74
378,Sovetskiy,RU,2021-12-17 05:13:44,61.3614,63.5842,13.86,97,100,2.86
379,Aleksandrovsk,RU,2021-12-17 05:13:44,59.158,57.5624,17.82,96,99,5.64
380,Edd,ER,2021-12-17 05:13:45,13.9297,41.6925,79.86,56,6,15.75
381,San Cristobal,VE,2021-12-17 05:13:45,7.7669,-72.225,68.18,94,100,1.19
382,Kuandian,CN,2021-12-17 05:13:46,40.7286,124.7847,10.29,33,99,15.55
383,Santa Cruz,BO,2021-12-17 05:10:30,-17.8,-63.1667,76.46,88,75,4.61
384,Sawakin,SD,2021-12-17 05:13:46,19.1059,37.3321,78.44,78,68,5.64
385,Yumen,CN,2021-12-17 05:13:47,40.2833,97.2,28.24,33,0,27.27
386,Tulancingo,MX,2021-12-17 05:13:47,20.0833,-98.3667,52.47,89,29,2.28
387,Paragominas,BR,2021-12-17 05:13:48,-2.9667,-47.4833,73.0,97,100,1.77
388,Thohoyandou,ZA,2021-12-17 05:13:48,-22.9456,30.485,60.89,94,100,11.32
389,Jimo,CN,2021-12-17 05:13:48,36.3897,120.4622,30.0,30,58,21.81
390,Lasa,IT,2021-12-17 05:13:49,46.6166,10.7002,38.23,52,3,4.27
391,Henties Bay,NA,2021-12-17 05:13:49,-22.116,14.2845,56.86,84,50,0.74
392,West Bay,KY,2021-12-17 05:13:50,19.3667,-81.4167,77.0,85,40,7.0
393,Wajir,KE,2021-12-17 05:13:50,1.7471,40.0573,77.94,70,44,12.3
394,Gwadar,PK,2021-12-17 05:13:50,25.1216,62.3254,67.89,30,4,10.8
395,Bansi,IN,2021-12-17 05:13:51,27.1833,82.9333,70.77,31,0,6.42
396,Batsfjord,NO,2021-12-17 05:13:51,70.6345,29.7185,30.42,94,99,2.51
397,Laguna,US,2021-12-17 05:13:52,38.421,-121.4238,46.06,90,1,3.0
398,Tual,ID,2021-12-17 05:13:52,-5.6667,132.75,84.4,72,61,6.35
399,Jasper,US,2021-12-17 05:13:52,37.2001,-94.3502,44.82,69,1,1.01
400,Salamiyah,SY,2021-12-17 05:13:53,35.0113,37.0532,46.83,87,28,1.9
401,Sungurlu,TR,2021-12-17 05:13:53,40.1675,34.3739,36.82,99,100,2.37
402,Raudeberg,NO,2021-12-17 05:13:54,61.9875,5.1352,47.19,93,100,3.0
403,Tursunzoda,TJ,2021-12-17 05:13:54,38.5144,68.2333,41.88,18,0,5.68
404,Kuching,MY,2021-12-17 05:13:55,1.55,110.3333,84.42,84,40,4.61
405,Minab,IR,2021-12-17 05:13:55,27.1467,57.0801,62.1,41,86,2.57
406,San Buenaventura,MX,2021-12-17 05:13:55,27.0833,-101.5333,69.48,69,97,0.34
407,Maragogi,BR,2021-12-17 05:13:56,-9.0122,-35.2225,77.07,84,23,7.56
408,Rawson,AR,2021-12-17 05:09:13,-43.3002,-65.1023,64.8,68,16,9.42
409,Christchurch,NZ,2021-12-17 05:13:56,-43.5333,172.6333,63.95,66,90,5.75
410,Riyadh,SA,2021-12-17 05:13:57,24.6877,46.7219,60.94,40,94,11.83
411,Najran,SA,2021-12-17 05:13:57,17.4924,44.1277,61.38,25,1,2.98
412,Zelenogradsk,RU,2021-12-17 05:13:58,54.9589,20.4767,40.96,81,0,8.01
413,Klyuchi,RU,2021-12-17 05:13:58,52.2667,79.1667,26.74,80,100,16.93
414,Kaithal,IN,2021-12-17 05:13:59,29.8,76.3833,60.15,30,0,9.71
415,Kawalu,ID,2021-12-17 05:13:59,-7.3817,108.2082,87.06,61,96,4.9
416,Kindu,CD,2021-12-17 05:14:00,-2.95,25.95,68.97,100,100,1.12
417,Hasaki,JP,2021-12-17 05:14:00,35.7333,140.8333,54.28,75,100,6.02
418,Kankon,IN,2021-12-17 05:14:01,15.0167,74.0167,83.07,46,91,4.59
419,Upernavik,GL,2021-12-17 05:09:25,72.7868,-56.1549,-0.98,93,100,2.77
420,Bonavista,CA,2021-12-17 05:14:01,48.6499,-53.1147,18.12,64,80,4.09
421,Mapimi,MX,2021-12-17 05:14:02,25.8167,-103.85,63.18,36,100,2.95
422,Abong Mbang,CM,2021-12-17 05:14:02,3.9833,13.1833,63.25,52,99,1.74
423,Kaduqli,SD,2021-12-17 05:09:09,11.0167,29.7167,68.81,29,100,11.25
424,Koutsouras,GR,2021-12-17 05:14:03,35.0339,25.9469,52.11,72,30,10.83
425,Wajima,JP,2021-12-17 05:14:03,37.4,136.9,46.58,79,100,10.13
426,Turbat,PK,2021-12-17 05:14:04,26.0023,63.044,64.11,10,2,9.6
427,Chifeng,CN,2021-12-17 05:12:16,42.2683,118.9636,18.66,14,0,18.14
428,Ust-Kuyga,RU,2021-12-17 05:14:04,70.0167,135.6,-49.04,100,98,1.5
429,Half Moon Bay,US,2021-12-17 05:09:32,37.4636,-122.4286,49.91,89,1,0.0
430,Bimbo,CF,2021-12-17 05:14:05,4.2567,18.4158,69.6,43,82,1.99
431,Alofi,NU,2021-12-17 05:14:06,-19.0595,-169.9187,80.44,83,7,16.46
432,Tecoanapa,MX,2021-12-17 05:14:06,16.5167,-98.75,76.41,79,8,4.41
433,Todiresti,RO,2021-12-17 05:14:06,47.3167,26.8333,39.88,76,97,17.16
434,Nabire,ID,2021-12-17 05:14:07,-3.3667,135.4833,74.48,96,100,3.13
435,Belyy Yar,RU,2021-12-17 05:14:07,53.6039,91.3903,24.69,90,0,6.71
436,Saint-Francois,FR,2021-12-17 05:14:08,46.4154,3.9054,35.42,99,90,2.3
437,Camabatela,AO,2021-12-17 05:14:08,-8.1881,15.375,62.15,100,100,1.3
438,Reserva,BR,2021-12-17 05:14:08,-24.6503,-50.8506,65.43,99,34,2.1
439,Nicoya,CR,2021-12-17 05:14:09,10.1483,-85.452,76.55,89,19,3.67
440,Maldonado,UY,2021-12-17 05:14:09,-34.6667,-54.9167,63.23,93,9,3.78
441,Elblag,PL,2021-12-17 05:14:10,54.1522,19.4088,38.19,84,13,13.47
442,Dombarovskiy,RU,2021-12-17 05:14:10,50.7587,59.5386,24.24,92,94,7.18
443,Mao,ES,2021-12-17 05:14:11,39.8885,4.2658,52.36,82,90,2.3
444,Sao Joao Da Barra,BR,2021-12-17 05:13:56,-21.6403,-41.0511,75.65,91,98,7.11
445,Khandagayty,RU,2021-12-17 05:14:11,50.7333,92.05,-3.19,91,100,0.25
446,Crossville,US,2021-12-17 05:14:12,35.949,-85.0269,57.11,98,90,7.0
447,Linqing,CN,2021-12-17 05:14:12,36.8456,115.7117,33.1,14,0,8.7
448,Kefamenanu,ID,2021-12-17 05:14:13,-9.4467,124.4781,93.29,41,40,2.19
449,Hastings,GB,2021-12-17 05:14:13,50.8552,0.5729,50.92,83,2,10.56
450,Kattivakkam,IN,2021-12-17 05:14:14,13.2167,80.3167,82.49,76,92,15.43
451,Toma,BF,2021-12-17 05:11:10,12.7667,-2.8833,70.66,17,95,8.14
452,Samfya,ZM,2021-12-17 05:14:14,-11.3649,29.5565,66.15,92,100,5.3
453,Teluk Nibung,ID,2021-12-17 05:14:15,3.001,99.8164,76.28,93,100,12.3
454,Mangan,IN,2021-12-17 05:14:15,27.5167,88.5333,68.54,26,0,5.48
455,Marovoay,MG,2021-12-17 05:14:15,-16.1,46.6333,84.34,53,31,6.2
456,Lazaro Cardenas,MX,2021-12-17 05:14:16,17.9583,-102.2,74.82,87,1,4.0
457,Bonaventure,CA,2021-12-17 05:12:07,48.0457,-65.4926,36.34,98,100,9.89
458,Puerto Cabezas,NI,2021-12-17 05:14:16,14.0351,-83.3888,76.35,91,100,11.83
459,Makakilo City,US,2021-12-17 05:14:17,21.3469,-158.0858,73.72,74,1,3.44
460,Burgos,ES,2021-12-17 05:14:17,42.3394,-3.7079,27.01,86,5,5.75
461,Skjervoy,NO,2021-12-17 05:14:18,70.0311,20.9714,37.4,70,78,13.38
462,Sooke,CA,2021-12-17 05:14:18,48.3746,-123.7276,41.58,82,58,6.8
463,Itupiranga,BR,2021-12-17 05:14:18,-5.1347,-49.3267,75.52,98,100,3.13
464,Sembe,CG,2021-12-17 05:14:19,1.6481,14.5806,71.28,90,100,3.04
465,Svetlogorsk,BY,2021-12-17 05:14:19,52.6333,29.7333,33.57,97,100,9.95
466,South Hill,US,2021-12-17 05:14:20,47.1412,-122.2701,40.3,95,40,0.0
467,Gasa,PS,2021-12-17 05:14:20,31.5,34.4667,55.89,78,94,4.63
468,Calatayud,ES,2021-12-17 05:14:20,41.3535,-1.6432,41.58,63,3,2.06
469,Plettenberg Bay,ZA,2021-12-17 05:14:21,-34.0527,23.3716,57.96,72,29,11.83
470,Kruisfontein,ZA,2021-12-17 05:14:21,-34.0033,24.7314,54.88,61,96,8.05
471,Hirara,JP,2021-12-17 05:14:22,24.8,125.2833,68.83,77,87,32.84
472,Kununurra,AU,2021-12-17 05:14:22,-15.7667,128.7333,103.98,39,40,8.05
473,Yasnyy,RU,2021-12-17 05:14:22,51.0333,59.8742,22.23,94,89,7.9
474,Nhamunda,BR,2021-12-17 05:14:23,-2.1861,-56.7131,74.97,93,100,2.01
475,Hit,IQ,2021-12-17 05:14:23,33.6416,42.8251,56.84,79,100,4.09
476,Qostanay,KZ,2021-12-17 05:14:24,53.1667,63.5833,26.89,86,90,8.95
477,Port-Gentil,GA,2021-12-17 05:14:24,-0.7193,8.7815,79.84,79,100,8.55
478,Pisco,PE,2021-12-17 05:14:25,-13.7,-76.2167,68.02,82,0,3.44
479,Dingle,PH,2021-12-17 05:14:25,10.9995,122.6711,82.26,81,100,12.28
480,Sungaipenuh,ID,2021-12-17 05:14:26,-2.0833,101.3833,67.77,95,100,2.75
481,Sao Joao Do Piaui,BR,2021-12-17 05:14:26,-8.3581,-42.2467,79.57,55,100,1.68
482,Khvorostyanka,RU,2021-12-17 05:14:27,52.6096,48.9597,29.28,96,100,9.6
483,Savannah Bight,HN,2021-12-17 05:14:27,16.45,-85.85,75.99,77,45,12.73
484,Durango,MX,2021-12-17 05:14:23,24.8333,-104.8333,56.3,32,100,5.26
485,Bilma,NE,2021-12-17 05:14:28,18.6853,12.9164,57.15,32,88,10.54
486,Bachatskiy,RU,2021-12-17 05:14:28,54.2927,86.1285,22.57,88,100,18.92
487,Kysyl-Syr,RU,2021-12-17 05:14:29,63.8986,122.7617,-23.31,100,99,1.34
488,Pimentel,PE,2021-12-17 05:14:29,-6.8367,-79.9342,66.78,86,95,12.3
489,Nueva Loja,EC,2021-12-17 05:14:30,0.0847,-76.8828,71.62,100,97,1.21
490,Flinders,AU,2021-12-17 05:14:30,-34.5833,150.8552,80.8,68,34,14.72
491,Luau,AO,2021-12-17 05:14:30,-10.7073,22.2247,64.38,93,100,1.3
492,Batagay-Alyta,RU,2021-12-17 05:14:31,67.8006,130.4114,-30.98,96,97,2.84
493,Bagli,IN,2021-12-17 05:14:31,22.65,76.35,64.62,51,9,8.37
494,Belle Fourche,US,2021-12-17 05:14:32,44.6714,-103.8522,28.51,49,49,3.42
495,Bahia Honda,CU,2021-12-17 05:14:32,22.9036,-83.1592,72.43,89,73,9.8
496,Polovinnoye,RU,2021-12-17 05:14:33,54.7914,65.9864,26.04,92,100,13.35
497,Kyren,RU,2021-12-17 05:14:33,51.6828,102.1408,14.04,69,87,0.34
498,Wittlich,DE,2021-12-17 05:14:33,49.9833,6.8833,46.94,100,90,8.05
499,Padang,ID,2021-12-17 05:14:34,-0.9492,100.3543,75.25,96,100,8.95
500,Babushkin,RU,2021-12-17 05:14:34,51.7122,105.8647,18.82,72,100,7.43
501,Tombouctou,ML,2021-12-17 05:14:35,20.0,-3.0,71.33,27,21,9.53
502,Broome,US,2021-12-17 05:12:56,42.2506,-75.833,60.62,69,90,1.99
503,Caconda,AO,2021-12-17 05:14:35,-13.7333,15.0667,61.0,95,100,2.13
504,Dukat,RU,2021-12-17 05:14:36,62.55,155.55,-32.12,97,90,3.02
505,Komarikhinskiy,RU,2021-12-17 05:14:36,58.0979,57.1163,25.79,96,98,5.41
506,Charagua,BO,2021-12-17 05:11:13,-19.8,-63.2167,70.36,72,85,4.43
507,Morro Bay,US,2021-12-17 05:14:37,35.3658,-120.8499,53.2,93,32,6.89
508,Largo,US,2021-12-17 05:14:37,27.9095,-82.7873,73.4,83,1,1.99
509,Axim,GH,2021-12-17 05:14:38,4.8699,-2.2405,78.71,86,53,4.16
510,Monrovia,LR,2021-12-17 05:14:24,6.3005,-10.7969,78.22,83,64,4.59
511,San Carlos De Bariloche,AR,2021-12-17 05:14:38,-41.1456,-71.3082,53.35,62,0,0.0
512,Machali,CL,2021-12-17 05:14:39,-34.1833,-70.6667,56.41,65,0,2.13
513,High Level,CA,2021-12-17 05:14:39,58.5169,-117.136,-27.11,100,50,3.24
514,Aklavik,CA,2021-12-17 05:14:40,68.2191,-135.0107,-21.28,91,100,14.63
515,Baie-Comeau,CA,2021-12-17 05:13:16,49.2168,-68.1489,35.28,100,90,5.75
516,Nevsehir,TR,2021-12-17 05:14:41,38.9167,34.6667,31.21,100,75,5.75
517,Verkhnevilyuysk,RU,2021-12-17 05:14:41,63.4453,120.3167,-26.3,100,71,0.81
518,Saint-Joseph,RE,2021-12-17 05:14:41,-21.3667,55.6167,78.21,75,67,3.69
519,Granadilla De Abona,ES,2021-12-17 05:14:42,28.1188,-16.576,59.45,53,20,5.75
520,Parrita,CR,2021-12-17 05:14:42,9.5201,-84.3225,82.17,87,10,3.62
521,Oksfjord,NO,2021-12-17 05:14:43,70.2396,22.3479,31.12,92,90,4.72
522,Kloulklubed,PW,2021-12-17 05:14:43,7.0419,134.2556,86.5,74,100,10.0
523,Skagen,DK,2021-12-17 05:14:43,57.7209,10.5839,44.78,78,59,8.86
524,Sitka,US,2021-12-17 05:14:44,57.0531,-135.33,35.49,64,90,11.5
525,Talara,PE,2021-12-17 05:14:44,-4.5772,-81.2719,69.17,85,100,15.12
526,Groningen,NL,2021-12-17 05:14:45,53.25,6.75,47.03,97,75,3.44
527,Tabuk,PH,2021-12-17 05:14:45,17.4189,121.4443,76.05,90,100,4.59
528,Bargarh,IN,2021-12-17 05:14:46,21.3333,83.6167,72.82,41,53,2.51
529,Tekeli,KZ,2021-12-17 05:14:46,44.83,78.8239,29.39,68,41,8.41
530,Los Llanos De Aridane,ES,2021-12-17 05:14:46,28.6585,-17.9182,56.95,80,0,7.0
531,Vao,NC,2021-12-17 05:14:47,-22.6667,167.4833,75.49,67,2,12.46
532,Lagoa,PT,2021-12-17 05:14:47,39.05,-27.9833,61.18,72,75,14.76
533,Ocean City,US,2021-12-17 05:14:48,39.2776,-74.5746,61.25,79,91,10.0
534,Zhigansk,RU,2021-12-17 05:14:48,66.7697,123.3711,-33.83,97,100,1.86
535,Brae,GB,2021-12-17 05:14:20,60.3964,-1.353,49.91,94,100,16.26
536,Videira,BR,2021-12-17 05:14:49,-27.0083,-51.1517,66.54,92,18,2.64
537,Ponta Delgada,PT,2021-12-17 05:14:49,37.7333,-25.6667,66.51,82,75,21.85
538,Lakatoro,VU,2021-12-17 05:14:50,-16.0999,167.4164,81.79,64,53,11.99
539,Ferrol,ES,2021-12-17 05:14:50,43.4832,-8.2369,48.45,81,28,5.14
540,Huambo,AO,2021-12-17 05:14:50,-12.7761,15.7392,60.64,97,100,0.6
541,Impfondo,CG,2021-12-17 05:14:51,1.6381,18.0667,70.59,96,95,1.68
542,Kaeo,NZ,2021-12-17 05:14:51,-35.1,173.7833,73.33,60,24,10.85
543,Bayir,TR,2021-12-17 05:14:52,37.2687,28.2167,34.32,95,74,5.57
544,Nadym,RU,2021-12-17 05:14:52,65.5333,72.5167,-9.26,85,100,10.47
545,Coahuayana,MX,2021-12-17 05:14:53,18.7333,-103.6833,72.54,95,6,3.15
546,Sorong,ID,2021-12-17 05:14:53,-0.8833,131.25,84.34,74,100,6.98
547,Yashan,CN,2021-12-17 05:14:54,22.1975,109.9419,71.47,45,100,15.19
548,Gat,IL,2021-12-17 05:14:54,31.61,34.7642,56.39,100,97,6.4
549,Kyabe,TD,2021-12-17 05:14:55,9.4515,18.9449,73.0,33,100,4.9
550,Te Anau,NZ,2021-12-17 05:14:55,-45.4167,167.7167,51.26,83,44,5.01
551,Vila Franca Do Campo,PT,2021-12-17 05:14:55,37.7167,-25.4333,66.2,86,98,19.64
552,Dhrangadhra,IN,2021-12-17 05:14:56,22.9833,71.4667,69.1,19,0,10.02
553,Toamasina,MG,2021-12-17 05:12:50,-18.1667,49.3833,80.71,66,24,5.17
554,Melilla,ES,2021-12-17 05:14:56,35.2937,-2.9383,59.38,77,75,5.75
555,Palatka,US,2021-12-17 05:14:57,29.6486,-81.6376,68.09,86,52,3.51
556,Yarmouth,US,2021-12-17 05:14:57,41.7057,-70.2286,56.97,89,1,4.0
557,High Rock,BS,2021-12-17 05:14:58,26.6208,-78.2833,66.22,67,25,12.59
558,Sendhwa,IN,2021-12-17 05:14:58,21.6833,75.1,72.95,48,13,6.17
559,Ucluelet,CA,2021-12-17 05:14:58,48.9329,-125.5528,38.12,79,12,6.49
560,Nogales,MX,2021-12-17 05:12:12,31.3086,-110.9422,50.49,61,1,3.44
561,Naples,IT,2021-12-17 05:14:26,40.8333,14.25,53.58,72,20,4.0
562,Tallahassee,US,2021-12-17 05:10:41,30.4383,-84.2807,65.86,97,37,2.95
